[
  {
    "id": 1,
    "name": "Hassan City Municipal Waste Center",
    "address": "Near Bus Stand, MG Road, Hassan",
    "lat": 13.0069,
    "lng": 76.0991,
    "rating": 4.2,
    "distance": "0.5 km",
    "hours": "8:00 AM - 6:00 PM",
    "type": "recycling",
    "phone": "+91 9876543210",
    "services": ["Plastic", "Paper", "Glass", "Metal"]
  },
  {
    "id": 2,
    "name": "Community Donation Center",
    "address": "Station Road, Hassan",
    "lat": 13.008,
    "lng": 76.1005,
    "rating": 4.0,
    "distance": "1.1 km",
    "hours": "9:00 AM - 5:00 PM",
    "type": "donation",
    "phone": "+91 7766554433",
    "services": ["Books", "Clothes", "Shoes"]
  },
  {
    "id": 3,
    "name": "Eco E-Waste Collection Hub",
    "address": "Ring Road, Behind NDRF Office, Hassan",
    "lat": 13.0159,
    "lng": 76.1025,
    "rating": 4.5,
    "distance": "2.3 km",
    "hours": "10:00 AM - 6:00 PM",
    "type": "e-waste",
    "phone": "+91 9988776655",
    "services": ["Mobiles", "Laptops", "Chargers", "Batteries"]
  },
  {
    "id": 4,
    "name": "Urban Recycling Facility",
    "address": "Kuvempu Nagar, Hassan",
    "lat": 13.0095,
    "lng": 76.0853,
    "rating": 4.1,
    "distance": "3.0 km",
    "hours": "9:00 AM - 7:00 PM",
    "type": "recycling",
    "phone": "+91 9123456780",
    "services": ["Plastic", "Glass", "Tin", "Cardboard"]
  },
  {
    "id": 5,
    "name": "Green Earth Glass Recycle Point",
    "address": "Vidyanagar Cross, Hassan",
    "lat": 13.0001,
    "lng": 76.0902,
    "rating": 3.9,
    "distance": "1.8 km",
    "hours": "8:00 AM - 4:00 PM",
    "type": "recycling",
    "phone": "+91 9001122334",
    "services": ["Glass Bottles", "Glass Jars"]
  },
  {
    "id": 6,
    "name": "Metal Scrap & Recycle Yard",
    "address": "Industrial Area Phase-2, Hassan",
    "lat": 13.0302,
    "lng": 76.1201,
    "rating": 4.3,
    "distance": "4.5 km",
    "hours": "10:00 AM - 6:30 PM",
    "type": "metal-recycle",
    "phone": "+91 9384092112",
    "services": ["Aluminum Can", "Steel", "Copper Scrap"]
  },
  {
    "id": 7,
    "name": "Goodwill Clothing Donation Center",
    "address": "Lakshmi Road, Salagame Road, Hassan",
    "lat": 13.0100,
    "lng": 76.0955,
    "rating": 4.6,
    "distance": "1.4 km",
    "hours": "9:00 AM - 8:00 PM",
    "type": "donation",
    "phone": "+91 8240092234",
    "services": ["Clothes", "Bedsheets", "Curtains"]
  },
  {
    "id": 8,
    "name": "City Library Donation Desk",
    "address": "City Library, KSRTC Road, Hassan",
    "lat": 13.0123,
    "lng": 76.0932,
    "rating": 4.8,
    "distance": "900 m",
    "hours": "8:00 AM - 5:00 PM",
    "type": "donation",
    "phone": "+91 7012345698",
    "services": ["Books", "Magazines"]
  },
  {
    "id": 9,
    "name": "Wood & Furniture Recycling Depot",
    "address": "Hassan Industrial Layout",
    "lat": 13.0270,
    "lng": 76.1103,
    "rating": 4.0,
    "distance": "5.0 km",
    "hours": "9:00 AM - 6:00 PM",
    "type": "recycling",
    "phone": "+91 9123002219",
    "services": ["Wood", "Furniture", "Plywood Waste"]
  },
  {
    "id": 10,
    "name": "Compost & Organic Waste Plant",
    "address": "Outer Ring Road, Hassan",
    "lat": 13.0211,
    "lng": 76.1150,
    "rating": 3.7,
    "distance": "3.8 km",
    "hours": "7:00 AM - 4:00 PM",
    "type": "organic",
    "phone": "+91 8543009872",
    "services": ["Food Waste", "Bio Waste"]
  }
]
